[
  {"name": "Столична", "oblast": "София-град", "obshina": "Столична", "website": "https://www.sofia.bg", "population": 1234567, "centroid_lat": 42.6977, "centroid_lng": 23.3219},
  {"name": "Пловдив", "oblast": "Пловдив", "obshina": "Пловдив", "website": "https://www.plovdiv.bg", "population": 343424, "centroid_lat": 42.1354, "centroid_lng": 24.7453},
  {"name": "Варна", "oblast": "Варна", "obshina": "Варна", "website": "https://www.varna.bg", "population": 330000, "centroid_lat": 43.2141, "centroid_lng": 27.9147},
  {"name": "Бургас", "oblast": "Бургас", "obshina": "Бургас", "website": "https://www.burgas.bg", "population": 210000, "centroid_lat": 42.5, "centroid_lng": 27.4667},
  {"name": "Чепеларе", "oblast": "Смолян", "obshina": "Чепеларе", "website": "https://www.chepelare.bg", "population": 7500, "centroid_lat": 41.7167, "centroid_lng": 24.6833},
  {"name": "Смолян", "oblast": "Смолян", "obshina": "Смолян", "website": "https://www.smolyan.bg", "population": 30000, "centroid_lat": 41.575, "centroid_lng": 24.7083},
  {"name": "Благоевград", "oblast": "Благоевград", "obshina": "Благоевград", "website": "https://www.blagoevgrad.bg", "population": 75000, "centroid_lat": 42.0167, "centroid_lng": 23.1},
  {"name": "Велико Търново", "oblast": "Велико Търново", "obshina": "Велико Търново", "website": "https://www.vt.bg", "population": 68000, "centroid_lat": 43.0833, "centroid_lng": 25.65},
  {"name": "Русе", "oblast": "Русе", "obshina": "Русе", "website": "https://www.ruse.bg", "population": 150000, "centroid_lat": 43.85, "centroid_lng": 25.9667},
  {"name": "Стара Загора", "oblast": "Стара Загора", "obshina": "Стара Загора", "website": "https://www.starazagora.bg", "population": 140000, "centroid_lat": 42.4333, "centroid_lng": 25.6333},
  {"name": "Плевен", "oblast": "Плевен", "obshina": "Плевен", "website": "https://www.pleven.bg", "population": 120000, "centroid_lat": 43.4167, "centroid_lng": 24.6167},
  {"name": "Добрич", "oblast": "Добрич", "obshina": "Добрич", "website": "https://www.dobrich.bg", "population": 90000, "centroid_lat": 43.5667, "centroid_lng": 27.8333},
  {"name": "Шумен", "oblast": "Шумен", "obshina": "Шумен", "website": "https://www.shumen.bg", "population": 85000, "centroid_lat": 43.2667, "centroid_lng": 26.9333},
  {"name": "Сливен", "oblast": "Сливен", "obshina": "Сливен", "website": "https://www.sliven.bg", "population": 95000, "centroid_lat": 42.6833, "centroid_lng": 26.3333},
  {"name": "Ямбол", "oblast": "Ямбол", "obshina": "Ямбол", "website": "https://www.yambol.bg", "population": 75000, "centroid_lat": 42.4833, "centroid_lng": 26.5}
]
